{"type":"FeatureCollection","features":[{"type":"Feature","geometry":{"type":"LineString","coordinates":[[-3.188396,55.944425],[-3.1881006,55.9444771],[-3.1878006,55.9444771],[-3.1875051,55.9445292],[-3.1872051,55.9445292],[-3.1869097,55.9445813],[-3.1866278,55.9446839],[-3.1863459,55.9447865],[-3.1860639,55.9448891],[-3.1857685,55.9449412],[-3.1854866,55.9450438],[-3.1851912,55.9450959],[-3.1849092,55.9451985],[-3.1846138,55.9452506],[-3.1846138,55.9449506],[-3.1846138,55.9446506],[-3.1846138,55.9443506],[-3.1846659,55.9440552],[-3.1849659,55.9440552],[-3.1852659,55.9440552],[-3.1855659,55.9440552],[-3.1858659,55.9440552],[-3.1861659,55.9440552],[-3.1864659,55.9440552],[-3.1867613,55.9440031],[-3.1870613,55.9440031],[-3.1867794,55.9439005],[-3.1864975,55.9437978],[-3.1862156,55.9436952],[-3.1859337,55.9435926],[-3.1857837,55.9433328],[-3.1856337,55.943073],[-3.1853337,55.943073],[-3.1850383,55.9430209],[-3.1847383,55.9430209],[-3.1848883,55.9432807],[-3.1851181,55.9434736],[-3.1853109,55.9437034],[-3.1855407,55.9438962],[-3.1857336,55.944126],[-3.1859634,55.9443189],[-3.1861562,55.9445487],[-3.186386,55.9447415],[-3.1865789,55.9449713],[-3.1867717,55.9452011],[-3.1869217,55.945461],[-3.1866263,55.945513],[-3.1863308,55.9455651],[-3.1860489,55.9456677],[-3.1857535,55.9457198],[-3.1858056,55.9460153],[-3.186101,55.9459632],[-3.186401,55.9459632],[-3.1866964,55.9459111],[-3.1869964,55.9459111],[-3.1872919,55.945859],[-3.1875919,55.945859],[-3.1878873,55.9458069],[-3.1881873,55.9458069],[-3.1884828,55.9457548],[-3.1887126,55.945562],[-3.189008,55.9456141],[-3.1893035,55.9456662],[-3.1895633,55.9458162],[-3.1898231,55.9459662],[-3.1900529,55.9457733],[-3.1902827,55.9455805],[-3.1905125,55.9453877],[-3.1907423,55.9451948],[-3.1909722,55.945002],[-3.1911222,55.9452618],[-3.1912248,55.9455437],[-3.1915067,55.9454411],[-3.1917886,55.9453385],[-3.1920484,55.9451885],[-3.1918984,55.9449287],[-3.1917484,55.9446689],[-3.1915984,55.9444091],[-3.1914484,55.9441493],[-3.1912984,55.9438894],[-3.1911055,55.9436596],[-3.1908236,55.943557],[-3.1905638,55.943407],[-3.1902819,55.9433044],[-3.1900221,55.9431544],[-3.1897267,55.9431023],[-3.1894312,55.9430502],[-3.1891358,55.9429981],[-3.1892858,55.9432579],[-3.1894358,55.9435178],[-3.1895858,55.9437776],[-3.1897786,55.9440074],[-3.1897786,55.9443074],[-3.1897786,55.9446074],[-3.1898307,55.9449028],[-3.1898307,55.9452028],[-3.1898828,55.9454983],[-3.189623,55.9453483],[-3.1893632,55.9451983],[-3.1891034,55.9450483],[-3.1888215,55.9449457],[-3.188526,55.9448936],[-3.1882441,55.944791],[-3.1879487,55.9447389],[-3.1877987,55.9444791],[-3.1876961,55.9441971],[-3.1875461,55.9439373],[-3.1873961,55.9436775],[-3.1872935,55.9433956],[-3.1871909,55.9431137],[-3.1870409,55.9428539],[-3.1873007,55.9430039],[-3.1875826,55.9431065],[-3.1878424,55.9432565],[-3.1879924,55.9435163],[-3.188095,55.9437982],[-3.188245,55.944058],[-3.1883476,55.9443399]]},"properties":{}},{"type":"Feature","geometry":{"type":"Point","coordinates":[-3.186777,55.944575]},"properties":{"location":"artist.gets.react","rgb-string":"#000000","marker-color":"#000000","marker-symbol":"cross"}},{"type":"Feature","geometry":{"type":"Point","coordinates":[-3.184513,55.945302]},"properties":{"location":"settle.title.united","rgb-string":"#ffc000","marker-color":"#ffc000","marker-symbol":"danger"}},{"type":"Feature","geometry":{"type":"Point","coordinates":[-3.184658,55.943874]},"properties":{"location":"rider.mile.lime","rgb-string":"#ffc000","marker-color":"#ffc000","marker-symbol":"danger"}},{"type":"Feature","geometry":{"type":"Point","coordinates":[-3.186537,55.944063]},"properties":{"location":"lime.learns.front","rgb-string":"#ff8000","marker-color":"#ff8000","marker-symbol":"danger"}},{"type":"Feature","geometry":{"type":"Point","coordinates":[-3.187018,55.943982]},"properties":{"location":"renew.ears.tend","rgb-string":"#c0ff00","marker-color":"#c0ff00","marker-symbol":"lighthouse"}},{"type":"Feature","geometry":{"type":"Point","coordinates":[-3.185814,55.943551]},"properties":{"location":"record.sofa.sock","rgb-string":"#000000","marker-color":"#000000","marker-symbol":"cross"}},{"type":"Feature","geometry":{"type":"Point","coordinates":[-3.185621,55.943065]},"properties":{"location":"toned.deflection.bland","rgb-string":"#000000","marker-color":"#000000","marker-symbol":"cross"}},{"type":"Feature","geometry":{"type":"Point","coordinates":[-3.184754,55.943012]},"properties":{"location":"courier.assume.bill","rgb-string":"#ffc000","marker-color":"#ffc000","marker-symbol":"danger"}},{"type":"Feature","geometry":{"type":"Point","coordinates":[-3.184947,55.943443]},"properties":{"location":"sentences.sings.modern","rgb-string":"#ffc000","marker-color":"#ffc000","marker-symbol":"danger"}},{"type":"Feature","geometry":{"type":"Point","coordinates":[-3.186537,55.944925]},"properties":{"location":"laws.merit.bleak","rgb-string":"#ff0000","marker-color":"#ff0000","marker-symbol":"danger"}},{"type":"Feature","geometry":{"type":"Point","coordinates":[-3.186729,55.945168]},"properties":{"location":"dragon.bottle.crisp","rgb-string":"#ff0000","marker-color":"#ff0000","marker-symbol":"danger"}},{"type":"Feature","geometry":{"type":"Point","coordinates":[-3.186922,55.945437]},"properties":{"location":"spent.spoon.bolt","rgb-string":"#ff8000","marker-color":"#ff8000","marker-symbol":"danger"}},{"type":"Feature","geometry":{"type":"Point","coordinates":[-3.185621,55.945761]},"properties":{"location":"shed.desire.muddy","rgb-string":"#ff8000","marker-color":"#ff8000","marker-symbol":"danger"}},{"type":"Feature","geometry":{"type":"Point","coordinates":[-3.185814,55.94603]},"properties":{"location":"renew.slows.basket","rgb-string":"#ff8000","marker-color":"#ff8000","marker-symbol":"danger"}},{"type":"Feature","geometry":{"type":"Point","coordinates":[-3.188463,55.945761]},"properties":{"location":"bend.tubes.chops","rgb-string":"#ff4000","marker-color":"#ff4000","marker-symbol":"danger"}},{"type":"Feature","geometry":{"type":"Point","coordinates":[-3.188801,55.945437]},"properties":{"location":"shady.soft.phones","rgb-string":"#000000","marker-color":"#000000","marker-symbol":"cross"}},{"type":"Feature","geometry":{"type":"Point","coordinates":[-3.18933,55.945653]},"properties":{"location":"museum.spicy.horns","rgb-string":"#ffc000","marker-color":"#ffc000","marker-symbol":"danger"}},{"type":"Feature","geometry":{"type":"Point","coordinates":[-3.189957,55.94603]},"properties":{"location":"love.behind.orchestra","rgb-string":"#ffc000","marker-color":"#ffc000","marker-symbol":"danger"}},{"type":"Feature","geometry":{"type":"Point","coordinates":[-3.191016,55.944979]},"properties":{"location":"shapes.sheep.nature","rgb-string":"#ff4000","marker-color":"#ff4000","marker-symbol":"danger"}},{"type":"Feature","geometry":{"type":"Point","coordinates":[-3.191257,55.945599]},"properties":{"location":"skins.engage.best","rgb-string":"#ff4000","marker-color":"#ff4000","marker-symbol":"danger"}},{"type":"Feature","geometry":{"type":"Point","coordinates":[-3.192221,55.945114]},"properties":{"location":"useful.hike.trades","rgb-string":"#c0ff00","marker-color":"#c0ff00","marker-symbol":"lighthouse"}},{"type":"Feature","geometry":{"type":"Point","coordinates":[-3.191113,55.943631]},"properties":{"location":"loaf.cheer.slave","rgb-string":"#00ff00","marker-color":"#00ff00","marker-symbol":"lighthouse"}},{"type":"Feature","geometry":{"type":"Point","coordinates":[-3.190053,55.943173]},"properties":{"location":"shows.fries.lamp","rgb-string":"#40ff00","marker-color":"#40ff00","marker-symbol":"lighthouse"}},{"type":"Feature","geometry":{"type":"Point","coordinates":[-3.189234,55.943012]},"properties":{"location":"region.passes.pencil","rgb-string":"#80ff00","marker-color":"#80ff00","marker-symbol":"lighthouse"}},{"type":"Feature","geometry":{"type":"Point","coordinates":[-3.189812,55.94409]},"properties":{"location":"cliff.asleep.wedge","rgb-string":"#40ff00","marker-color":"#40ff00","marker-symbol":"lighthouse"}},{"type":"Feature","geometry":{"type":"Point","coordinates":[-3.18986,55.945491]},"properties":{"location":"turkey.limit.ramp","rgb-string":"#ffc000","marker-color":"#ffc000","marker-symbol":"danger"}},{"type":"Feature","geometry":{"type":"Point","coordinates":[-3.189186,55.945087]},"properties":{"location":"number.exist.rate","rgb-string":"#ffc000","marker-color":"#ffc000","marker-symbol":"danger"}},{"type":"Feature","geometry":{"type":"Point","coordinates":[-3.187885,55.944709]},"properties":{"location":"hurt.green.filer","rgb-string":"#c0ff00","marker-color":"#c0ff00","marker-symbol":"lighthouse"}},{"type":"Feature","geometry":{"type":"Point","coordinates":[-3.187645,55.944143]},"properties":{"location":"bound.ends.matter","rgb-string":"#80ff00","marker-color":"#80ff00","marker-symbol":"lighthouse"}},{"type":"Feature","geometry":{"type":"Point","coordinates":[-3.1875,55.943874]},"properties":{"location":"begins.spider.drips","rgb-string":"#80ff00","marker-color":"#80ff00","marker-symbol":"lighthouse"}},{"type":"Feature","geometry":{"type":"Point","coordinates":[-3.187355,55.943604]},"properties":{"location":"shut.stands.media","rgb-string":"#80ff00","marker-color":"#80ff00","marker-symbol":"lighthouse"}},{"type":"Feature","geometry":{"type":"Point","coordinates":[-3.18697,55.942688]},"properties":{"location":"strut.river.surely","rgb-string":"#c0ff00","marker-color":"#c0ff00","marker-symbol":"lighthouse"}},{"type":"Feature","geometry":{"type":"Point","coordinates":[-3.187837,55.943227]},"properties":{"location":"gums.clock.modes","rgb-string":"#80ff00","marker-color":"#80ff00","marker-symbol":"lighthouse"}}]}