{"type":"FeatureCollection","features":[{"type":"Feature","geometry":{"type":"Polygon","coordinates":[[[-3.1871805,55.9444875],[-3.1870423,55.9441939],[-3.1869766,55.9442036],[-3.1868975,55.9440482],[-3.1863302,55.9441323],[-3.1864053,55.9442967],[-3.1863034,55.944311],[-3.1863396,55.9443711],[-3.1864093,55.9443621],[-3.1864254,55.9443974],[-3.1862269,55.9444237],[-3.1863946,55.9445701],[-3.1864308,55.9445859],[-3.1864884,55.9445919],[-3.1871805,55.9444875]]]},"properties":{"rgb-string":"#ff0000","fill":"#ff0000"}},{"type":"Feature","geometry":{"type":"Polygon","coordinates":[[[-3.1866977,55.9433602],[-3.1865562,55.9430666],[-3.1863456,55.9430985],[-3.1864864,55.9433925],[-3.1866977,55.9433602]]]},"properties":{"rgb-string":"#ff0000","fill":"#ff0000"}},{"type":"Feature","geometry":{"type":"Polygon","coordinates":[[[-3.1897084,55.9428082],[-3.1894751,55.9423313],[-3.1882721,55.9425145],[-3.1885055,55.942993],[-3.1897084,55.9428082]]]},"properties":{"rgb-string":"#ff0000","fill":"#ff0000"}},{"type":"Feature","geometry":{"type":"Polygon","coordinates":[[[-3.188079,55.945418],[-3.1876338,55.9445829],[-3.1869176,55.9447015],[-3.1870463,55.9449419],[-3.1869096,55.9449644],[-3.1867808,55.9448157],[-3.1865662,55.9448773],[-3.1871134,55.9455532],[-3.1872958,55.9455051],[-3.1878322,55.9454601],[-3.188079,55.945418]]]},"properties":{"rgb-string":"#ff0000","fill":"#ff0000"}},{"type":"Feature","geometry":{"type":"LineString","coordinates":[[-3.188396,55.944425],[-3.1884481,55.9441296],[-3.1881662,55.944027],[-3.188359,55.9437971],[-3.1885519,55.9435673],[-3.1887447,55.9433375],[-3.1888473,55.9436194],[-3.1891071,55.9437694],[-3.189389,55.943872],[-3.1896488,55.944022],[-3.1898417,55.9437922],[-3.1900715,55.9435994],[-3.1902643,55.9433696],[-3.1900715,55.9431397],[-3.1899215,55.9428799],[-3.1897286,55.9426501],[-3.1900105,55.9427527],[-3.1902704,55.9429027],[-3.1905523,55.9430053],[-3.1908342,55.9429027],[-3.191094,55.9427527],[-3.191094,55.9430527],[-3.191094,55.9433527],[-3.191094,55.9436527],[-3.191094,55.9439527],[-3.1911461,55.9442482],[-3.1910435,55.9445301],[-3.1910956,55.9448255],[-3.191391,55.9448776],[-3.1916729,55.9449802],[-3.1919684,55.9450323],[-3.1922503,55.9451349],[-3.1921477,55.9454168],[-3.192045,55.9456987],[-3.191895,55.9459586],[-3.191595,55.9459586],[-3.191295,55.9459586],[-3.190995,55.9459586],[-3.190695,55.9459586],[-3.1903996,55.9460106],[-3.1900996,55.9460106],[-3.1898042,55.9459586],[-3.1895223,55.9458559],[-3.1892268,55.9458039],[-3.1889449,55.9457012],[-3.1886449,55.9457012],[-3.1883449,55.9457012],[-3.1880449,55.9457012],[-3.1877449,55.9457012],[-3.1874449,55.9457012],[-3.1871449,55.9457012],[-3.1868495,55.9456491],[-3.1867974,55.9453537],[-3.1866474,55.9450939],[-3.1864974,55.9448341],[-3.1863474,55.9445743],[-3.1860474,55.9445743],[-3.1857474,55.9445743],[-3.1854474,55.9445743],[-3.1851474,55.9445743],[-3.1849545,55.9448041],[-3.1847617,55.9450339],[-3.1845689,55.9452637],[-3.1844663,55.9449818],[-3.1845183,55.9446864],[-3.1845704,55.9443909],[-3.1846225,55.9440955],[-3.1846746,55.9438],[-3.1849701,55.943748],[-3.1848675,55.943466],[-3.1848154,55.9431706],[-3.1850973,55.943068],[-3.1853792,55.9429654],[-3.1856611,55.9428628],[-3.1859565,55.9428107],[-3.1862565,55.9428107],[-3.1859746,55.9429133],[-3.1856927,55.9430159],[-3.1859225,55.9432087],[-3.1861523,55.9434016],[-3.1864122,55.9435516],[-3.186642,55.9437444],[-3.1869018,55.9438944],[-3.1870518,55.9436346],[-3.1872018,55.9433748],[-3.1873518,55.9436346],[-3.1875018,55.9438944],[-3.1876518,55.9441542],[-3.1878018,55.944414],[-3.1879044,55.9446959],[-3.1881642,55.9445459]]},"properties":{}},{"type":"Feature","geometry":{"type":"Point","coordinates":[-3.186537,55.944925]},"properties":{"location":"laws.merit.bleak","rgb-string":"#ffc000","marker-color":"#ffc000","marker-symbol":"danger"}},{"type":"Feature","geometry":{"type":"Point","coordinates":[-3.186248,55.942796]},"properties":{"location":"under.retire.bump","rgb-string":"#ff4000","marker-color":"#ff4000","marker-symbol":"danger"}},{"type":"Feature","geometry":{"type":"Point","coordinates":[-3.187789,55.944386]},"properties":{"location":"thank.salsa.brain","rgb-string":"#40ff00","marker-color":"#40ff00","marker-symbol":"lighthouse"}},{"type":"Feature","geometry":{"type":"Point","coordinates":[-3.184465,55.944952]},"properties":{"location":"sports.topic.clocks","rgb-string":"#ffc000","marker-color":"#ffc000","marker-symbol":"danger"}},{"type":"Feature","geometry":{"type":"Point","coordinates":[-3.191161,55.942742]},"properties":{"location":"along.spill.limp","rgb-string":"#00ff00","marker-color":"#00ff00","marker-symbol":"lighthouse"}},{"type":"Feature","geometry":{"type":"Point","coordinates":[-3.191113,55.94417]},"properties":{"location":"hills.giant.crate","rgb-string":"#00ff00","marker-color":"#00ff00","marker-symbol":"lighthouse"}},{"type":"Feature","geometry":{"type":"Point","coordinates":[-3.188415,55.944305]},"properties":{"location":"trades.rare.cable","rgb-string":"#000000","marker-color":"#000000","marker-symbol":"cross"}},{"type":"Feature","geometry":{"type":"Point","coordinates":[-3.189957,55.94603]},"properties":{"location":"love.behind.orchestra","rgb-string":"#ff8000","marker-color":"#ff8000","marker-symbol":"danger"}},{"type":"Feature","geometry":{"type":"Point","coordinates":[-3.191065,55.94444]},"properties":{"location":"paying.crowd.weep","rgb-string":"#80ff00","marker-color":"#80ff00","marker-symbol":"lighthouse"}},{"type":"Feature","geometry":{"type":"Point","coordinates":[-3.189812,55.94409]},"properties":{"location":"cliff.asleep.wedge","rgb-string":"#40ff00","marker-color":"#40ff00","marker-symbol":"lighthouse"}},{"type":"Feature","geometry":{"type":"Point","coordinates":[-3.188271,55.944063]},"properties":{"location":"rush.crown.link","rgb-string":"#40ff00","marker-color":"#40ff00","marker-symbol":"lighthouse"}},{"type":"Feature","geometry":{"type":"Point","coordinates":[-3.188704,55.943389]},"properties":{"location":"system.speak.guard","rgb-string":"#00ff00","marker-color":"#00ff00","marker-symbol":"lighthouse"}},{"type":"Feature","geometry":{"type":"Point","coordinates":[-3.184754,55.943012]},"properties":{"location":"courier.assume.bill","rgb-string":"#ffc000","marker-color":"#ffc000","marker-symbol":"danger"}},{"type":"Feature","geometry":{"type":"Point","coordinates":[-3.186729,55.945653]},"properties":{"location":"hidden.handle.softly","rgb-string":"#ff8000","marker-color":"#ff8000","marker-symbol":"danger"}},{"type":"Feature","geometry":{"type":"Point","coordinates":[-3.192221,55.945114]},"properties":{"location":"useful.hike.trades","rgb-string":"#ff8000","marker-color":"#ff8000","marker-symbol":"danger"}},{"type":"Feature","geometry":{"type":"Point","coordinates":[-3.185621,55.943065]},"properties":{"location":"toned.deflection.bland","rgb-string":"#c0ff00","marker-color":"#c0ff00","marker-symbol":"lighthouse"}},{"type":"Feature","geometry":{"type":"Point","coordinates":[-3.18514,55.943685]},"properties":{"location":"hello.love.keys","rgb-string":"#ff4000","marker-color":"#ff4000","marker-symbol":"danger"}},{"type":"Feature","geometry":{"type":"Point","coordinates":[-3.184658,55.943874]},"properties":{"location":"rider.mile.lime","rgb-string":"#ff4000","marker-color":"#ff4000","marker-symbol":"danger"}},{"type":"Feature","geometry":{"type":"Point","coordinates":[-3.187018,55.943982]},"properties":{"location":"renew.ears.tend","rgb-string":"#c0ff00","marker-color":"#c0ff00","marker-symbol":"lighthouse"}},{"type":"Feature","geometry":{"type":"Point","coordinates":[-3.184513,55.945302]},"properties":{"location":"settle.title.united","rgb-string":"#ff0000","marker-color":"#ff0000","marker-symbol":"danger"}},{"type":"Feature","geometry":{"type":"Point","coordinates":[-3.189764,55.942661]},"properties":{"location":"hooked.shine.third","rgb-string":"#40ff00","marker-color":"#40ff00","marker-symbol":"lighthouse"}},{"type":"Feature","geometry":{"type":"Point","coordinates":[-3.186392,55.944656]},"properties":{"location":"rated.fired.crowds","rgb-string":"#ff0000","marker-color":"#ff0000","marker-symbol":"danger"}},{"type":"Feature","geometry":{"type":"Point","coordinates":[-3.185573,55.942877]},"properties":{"location":"dent.shins.cycle","rgb-string":"#ff0000","marker-color":"#ff0000","marker-symbol":"danger"}},{"type":"Feature","geometry":{"type":"Point","coordinates":[-3.187211,55.943335]},"properties":{"location":"scale.chair.kinds","rgb-string":"#c0ff00","marker-color":"#c0ff00","marker-symbol":"lighthouse"}},{"type":"Feature","geometry":{"type":"Point","coordinates":[-3.185236,55.944575]},"properties":{"location":"acid.chair.butter","rgb-string":"#ff0000","marker-color":"#ff0000","marker-symbol":"danger"}},{"type":"Feature","geometry":{"type":"Point","coordinates":[-3.188849,55.943658]},"properties":{"location":"labels.hotels.alert","rgb-string":"#40ff00","marker-color":"#40ff00","marker-symbol":"lighthouse"}},{"type":"Feature","geometry":{"type":"Point","coordinates":[-3.190727,55.943092]},"properties":{"location":"relate.chill.vest","rgb-string":"#40ff00","marker-color":"#40ff00","marker-symbol":"lighthouse"}},{"type":"Feature","geometry":{"type":"Point","coordinates":[-3.190197,55.943443]},"properties":{"location":"arts.dish.scarcely","rgb-string":"#40ff00","marker-color":"#40ff00","marker-symbol":"lighthouse"}},{"type":"Feature","geometry":{"type":"Point","coordinates":[-3.191883,55.946003]},"properties":{"location":"stone.undulation.poems","rgb-string":"#ff8000","marker-color":"#ff8000","marker-symbol":"danger"}},{"type":"Feature","geometry":{"type":"Point","coordinates":[-3.187885,55.944709]},"properties":{"location":"hurt.green.filer","rgb-string":"#c0ff00","marker-color":"#c0ff00","marker-symbol":"lighthouse"}},{"type":"Feature","geometry":{"type":"Point","coordinates":[-3.186729,55.945168]},"properties":{"location":"dragon.bottle.crisp","rgb-string":"#ffc000","marker-color":"#ffc000","marker-symbol":"danger"}},{"type":"Feature","geometry":{"type":"Point","coordinates":[-3.191065,55.944709]},"properties":{"location":"estate.gave.votes","rgb-string":"#40ff00","marker-color":"#40ff00","marker-symbol":"lighthouse"}},{"type":"Feature","geometry":{"type":"Point","coordinates":[-3.188897,55.945707]},"properties":{"location":"stops.else.chats","rgb-string":"#ff8000","marker-color":"#ff8000","marker-symbol":"danger"}}]}