{"type":"FeatureCollection","features":[{"type":"Feature","geometry":{"type":"Polygon","coordinates":[[[-3.1871805,55.9444875],[-3.1870423,55.9441939],[-3.1869766,55.9442036],[-3.1868975,55.9440482],[-3.1863302,55.9441323],[-3.1864053,55.9442967],[-3.1863034,55.944311],[-3.1863396,55.9443711],[-3.1864093,55.9443621],[-3.1864254,55.9443974],[-3.1862269,55.9444237],[-3.1863946,55.9445701],[-3.1864308,55.9445859],[-3.1864884,55.9445919],[-3.1871805,55.9444875]]]},"properties":{"rgb-string":"#ff0000","fill":"#ff0000"}},{"type":"Feature","geometry":{"type":"Polygon","coordinates":[[[-3.1866977,55.9433602],[-3.1865562,55.9430666],[-3.1863456,55.9430985],[-3.1864864,55.9433925],[-3.1866977,55.9433602]]]},"properties":{"rgb-string":"#ff0000","fill":"#ff0000"}},{"type":"Feature","geometry":{"type":"Polygon","coordinates":[[[-3.1897084,55.9428082],[-3.1894751,55.9423313],[-3.1882721,55.9425145],[-3.1885055,55.942993],[-3.1897084,55.9428082]]]},"properties":{"rgb-string":"#ff0000","fill":"#ff0000"}},{"type":"Feature","geometry":{"type":"Polygon","coordinates":[[[-3.188079,55.945418],[-3.1876338,55.9445829],[-3.1869176,55.9447015],[-3.1870463,55.9449419],[-3.1869096,55.9449644],[-3.1867808,55.9448157],[-3.1865662,55.9448773],[-3.1871134,55.9455532],[-3.1872958,55.9455051],[-3.1878322,55.9454601],[-3.188079,55.945418]]]},"properties":{"rgb-string":"#ff0000","fill":"#ff0000"}},{"type":"Feature","geometry":{"type":"LineString","coordinates":[[-3.188396,55.944425],[-3.1884481,55.9441296],[-3.1885002,55.9438341],[-3.1885523,55.9435387],[-3.1886044,55.9432432],[-3.1888863,55.9431406],[-3.1891682,55.943038],[-3.1893182,55.9432978],[-3.189511,55.9435276],[-3.1897929,55.943425],[-3.1900884,55.9433729],[-3.1903703,55.9432703],[-3.1906657,55.9432182],[-3.1909476,55.9431156],[-3.1912431,55.9430635],[-3.191191,55.943359],[-3.1910884,55.9436409],[-3.1910884,55.9439409],[-3.1911405,55.9442363],[-3.1910379,55.9445182],[-3.19109,55.9448137],[-3.1913854,55.9448658],[-3.1916673,55.9449684],[-3.1919628,55.9450205],[-3.1922447,55.9451231],[-3.1919492,55.9451752],[-3.1916492,55.9451752],[-3.1914564,55.945405],[-3.1912266,55.9455978],[-3.1910766,55.945338],[-3.1907947,55.9454406],[-3.1905128,55.9455432],[-3.1902308,55.9456458],[-3.1899489,55.9457484],[-3.189667,55.945851],[-3.1893851,55.9459537],[-3.189333,55.9456582],[-3.1892809,55.9453628],[-3.1891783,55.9450809],[-3.1889485,55.9452737],[-3.1887557,55.9455035],[-3.1885259,55.9456963],[-3.1882961,55.9455035],[-3.1881461,55.9452437],[-3.1880434,55.9449618],[-3.1878934,55.944702],[-3.1877908,55.9444201],[-3.1876408,55.9441603],[-3.1873589,55.9440577],[-3.1870635,55.9440056],[-3.1872563,55.9437758],[-3.1873589,55.9434939],[-3.1874615,55.9432119],[-3.1876115,55.9429521],[-3.1877141,55.9426702],[-3.1874322,55.9427728],[-3.1871368,55.9428249],[-3.1868368,55.9428249],[-3.1865368,55.9428249],[-3.1862368,55.9428249],[-3.1859368,55.9428249],[-3.1856414,55.942877],[-3.185744,55.9431589],[-3.1858466,55.9434408],[-3.1859492,55.9437227],[-3.1856894,55.9438727],[-3.1854965,55.9441026],[-3.1853037,55.9443324],[-3.1851109,55.9445622],[-3.184918,55.944792],[-3.1847252,55.9450218],[-3.1845323,55.9452516],[-3.1847252,55.9454814],[-3.184918,55.9457113],[-3.1851109,55.9459411],[-3.1853407,55.9461339],[-3.1856361,55.9460818],[-3.1857861,55.945822],[-3.1859361,55.9455622],[-3.1860861,55.9453024],[-3.1862361,55.9450426],[-3.1863387,55.9447607],[-3.1866206,55.9446581],[-3.1869161,55.944606],[-3.1872115,55.9445539],[-3.187507,55.9445018],[-3.187807,55.9445018],[-3.1881024,55.9444497]]},"properties":{}},{"type":"Feature","geometry":{"type":"Point","coordinates":[-3.185573,55.942877]},"properties":{"location":"dent.shins.cycle","rgb-string":"#ff0000","marker-color":"#ff0000","marker-symbol":"danger"}},{"type":"Feature","geometry":{"type":"Point","coordinates":[-3.191065,55.94444]},"properties":{"location":"paying.crowd.weep","rgb-string":"#80ff00","marker-color":"#80ff00","marker-symbol":"lighthouse"}},{"type":"Feature","geometry":{"type":"Point","coordinates":[-3.187645,55.944143]},"properties":{"location":"bound.ends.matter","rgb-string":"#80ff00","marker-color":"#80ff00","marker-symbol":"lighthouse"}},{"type":"Feature","geometry":{"type":"Point","coordinates":[-3.185332,55.946138]},"properties":{"location":"prime.rent.silk","rgb-string":"#ff8000","marker-color":"#ff8000","marker-symbol":"danger"}},{"type":"Feature","geometry":{"type":"Point","coordinates":[-3.189234,55.943012]},"properties":{"location":"region.passes.pencil","rgb-string":"#40ff00","marker-color":"#40ff00","marker-symbol":"lighthouse"}},{"type":"Feature","geometry":{"type":"Point","coordinates":[-3.18803,55.944979]},"properties":{"location":"agents.mile.crib","rgb-string":"#c0ff00","marker-color":"#c0ff00","marker-symbol":"lighthouse"}},{"type":"Feature","geometry":{"type":"Point","coordinates":[-3.191594,55.945195]},"properties":{"location":"hills.feels.tunes","rgb-string":"#ff4000","marker-color":"#ff4000","marker-symbol":"danger"}},{"type":"Feature","geometry":{"type":"Point","coordinates":[-3.187018,55.942877]},"properties":{"location":"valve.elaborate.fortunate","rgb-string":"#ffc000","marker-color":"#ffc000","marker-symbol":"danger"}},{"type":"Feature","geometry":{"type":"Point","coordinates":[-3.188463,55.945761]},"properties":{"location":"bend.tubes.chops","rgb-string":"#ff8000","marker-color":"#ff8000","marker-symbol":"danger"}},{"type":"Feature","geometry":{"type":"Point","coordinates":[-3.185814,55.94603]},"properties":{"location":"renew.slows.basket","rgb-string":"#ff4000","marker-color":"#ff4000","marker-symbol":"danger"}},{"type":"Feature","geometry":{"type":"Point","coordinates":[-3.187018,55.943982]},"properties":{"location":"renew.ears.tend","rgb-string":"#80ff00","marker-color":"#80ff00","marker-symbol":"lighthouse"}},{"type":"Feature","geometry":{"type":"Point","coordinates":[-3.18933,55.945653]},"properties":{"location":"museum.spicy.horns","rgb-string":"#ff4000","marker-color":"#ff4000","marker-symbol":"danger"}},{"type":"Feature","geometry":{"type":"Point","coordinates":[-3.186392,55.944656]},"properties":{"location":"rated.fired.crowds","rgb-string":"#ff4000","marker-color":"#ff4000","marker-symbol":"danger"}},{"type":"Feature","geometry":{"type":"Point","coordinates":[-3.188319,55.945518]},"properties":{"location":"skills.less.herb","rgb-string":"#ff0000","marker-color":"#ff0000","marker-symbol":"danger"}},{"type":"Feature","geometry":{"type":"Point","coordinates":[-3.188608,55.943119]},"properties":{"location":"groups.ideas.script","rgb-string":"#40ff00","marker-color":"#40ff00","marker-symbol":"lighthouse"}},{"type":"Feature","geometry":{"type":"Point","coordinates":[-3.188415,55.944305]},"properties":{"location":"trades.rare.cable","rgb-string":"#40ff00","marker-color":"#40ff00","marker-symbol":"lighthouse"}},{"type":"Feature","geometry":{"type":"Point","coordinates":[-3.191113,55.94417]},"properties":{"location":"hills.giant.crate","rgb-string":"#00ff00","marker-color":"#00ff00","marker-symbol":"lighthouse"}},{"type":"Feature","geometry":{"type":"Point","coordinates":[-3.186007,55.943901]},"properties":{"location":"teams.mild.played","rgb-string":"#ffc000","marker-color":"#ffc000","marker-symbol":"danger"}},{"type":"Feature","geometry":{"type":"Point","coordinates":[-3.191257,55.945599]},"properties":{"location":"skins.engage.best","rgb-string":"#ff0000","marker-color":"#ff0000","marker-symbol":"danger"}},{"type":"Feature","geometry":{"type":"Point","coordinates":[-3.184513,55.945302]},"properties":{"location":"settle.title.united","rgb-string":"#ff8000","marker-color":"#ff8000","marker-symbol":"danger"}},{"type":"Feature","geometry":{"type":"Point","coordinates":[-3.187355,55.943604]},"properties":{"location":"shut.stands.media","rgb-string":"#c0ff00","marker-color":"#c0ff00","marker-symbol":"lighthouse"}},{"type":"Feature","geometry":{"type":"Point","coordinates":[-3.191161,55.943065]},"properties":{"location":"else.urban.museum","rgb-string":"#00ff00","marker-color":"#00ff00","marker-symbol":"lighthouse"}},{"type":"Feature","geometry":{"type":"Point","coordinates":[-3.191065,55.944709]},"properties":{"location":"estate.gave.votes","rgb-string":"#80ff00","marker-color":"#80ff00","marker-symbol":"lighthouse"}},{"type":"Feature","geometry":{"type":"Point","coordinates":[-3.191016,55.945248]},"properties":{"location":"maple.limit.hotels","rgb-string":"#ff4000","marker-color":"#ff4000","marker-symbol":"danger"}},{"type":"Feature","geometry":{"type":"Point","coordinates":[-3.191113,55.943631]},"properties":{"location":"loaf.cheer.slave","rgb-string":"#00ff00","marker-color":"#00ff00","marker-symbol":"lighthouse"}},{"type":"Feature","geometry":{"type":"Point","coordinates":[-3.185525,55.943982]},"properties":{"location":"manliness.poem.cliff","rgb-string":"#c0ff00","marker-color":"#c0ff00","marker-symbol":"lighthouse"}},{"type":"Feature","geometry":{"type":"Point","coordinates":[-3.192221,55.945114]},"properties":{"location":"useful.hike.trades","rgb-string":"#000000","marker-color":"#000000","marker-symbol":"cross"}},{"type":"Feature","geometry":{"type":"Point","coordinates":[-3.189523,55.943551]},"properties":{"location":"cars.attend.hotels","rgb-string":"#40ff00","marker-color":"#40ff00","marker-symbol":"lighthouse"}},{"type":"Feature","geometry":{"type":"Point","coordinates":[-3.185043,55.945868]},"properties":{"location":"rider.aura.bulb","rgb-string":"#ffc000","marker-color":"#ffc000","marker-symbol":"danger"}},{"type":"Feature","geometry":{"type":"Point","coordinates":[-3.189379,55.945949]},"properties":{"location":"coherent.saints.stuck","rgb-string":"#ff8000","marker-color":"#ff8000","marker-symbol":"danger"}},{"type":"Feature","geometry":{"type":"Point","coordinates":[-3.189186,55.945087]},"properties":{"location":"number.exist.rate","rgb-string":"#c0ff00","marker-color":"#c0ff00","marker-symbol":"lighthouse"}},{"type":"Feature","geometry":{"type":"Point","coordinates":[-3.187693,55.942769]},"properties":{"location":"panic.squad.danger","rgb-string":"#ff8000","marker-color":"#ff8000","marker-symbol":"danger"}},{"type":"Feature","geometry":{"type":"Point","coordinates":[-3.186777,55.944575]},"properties":{"location":"artist.gets.react","rgb-string":"#c0ff00","marker-color":"#c0ff00","marker-symbol":"lighthouse"}}]}